{
  "cities": [
    {
      "cityName": "New Delhi",
      "country": "India",
      "emoji": "ðŸ‡®ðŸ‡³",
      "date": "2027-02-12T09:24:11.863Z",
      "notes": "Amazing ðŸ˜ƒ",
      "position": {
        "lat": 28.6,
        "lng": 77.2
      },
      "id": "82748920"
    },
    {
      "cityName": "Lisbon",
      "country": "Portugal",
      "emoji": "ðŸ‡µðŸ‡¹",
      "date": "2027-10-31T15:59:59.138Z",
      "notes": "My favorite city so far!",
      "position": {
        "lat": 38.727881642324164,
        "lng": -9.140900099907554
      },
      "id": "73930385"
    },
    {
      "cityName": "Madrid",
      "country": "Spain",
      "emoji": "ðŸ‡ªðŸ‡¸",
      "date": "2027-07-15T08:22:53.976Z",
      "notes": "",
      "position": {
        "lat": 40.46635901755316,
        "lng": -3.7133789062500004
      },
      "id": "17806751"
    },
    {
      "cityName": "Berlin",
      "country": "Germany",
      "emoji": "ðŸ‡©ðŸ‡ª",
      "date": "2027-02-12T09:24:11.863Z",
      "notes": "Amazing ðŸ˜ƒ",
      "position": {
        "lat": 52.53586782505711,
        "lng": 13.405
      },
      "id": "98443197"
    },
    {
      "cityName": "New York",
      "country": "USA",
      "emoji": "ðŸ‡ºðŸ‡¸",
      "date": "2027-02-12T09:24:11.863Z",
      "notes": "Amazing ðŸ˜ƒ",
      "position": {
        "lat": 40.7128,
        "lng": 74.006
      },
      "id": "76776272"
    },
    {
      "cityName": "Ontario",
      "country": "Canada",
      "emoji": "ðŸ‡¨ðŸ‡¦",
      "date": "2027-02-12T09:24:11.863Z",
      "notes": "Amazing ðŸ˜ƒ",
      "position": {
        "lat": 51.25,
        "lng": 85.32
      },
      "id": "11009922"
    },
    {
      "id": "ce4b",
      "cityName": "Rewari",
      "country": "India",
      "date": "2024-03-18T19:36:36.953Z",
      "notes": "Rewari is the place where my friend lives",
      "emoji": "ðŸ‡®ðŸ‡³",
      "position": {
        "lat": "28.13012773787403",
        "lng": "76.60766601562501"
      }
    },
    {
      "id": "e5e5",
      "cityName": "Thanjavur",
      "country": "India",
      "date": "2024-03-18T21:11:56.636Z",
      "notes": "I don;t know this place",
      "emoji": "ðŸ‡®ðŸ‡³",
      "position": {
        "lat": "10.768555807732437",
        "lng": "79.15649414062501"
      }
    }
  ]
}